time : 0.05 Pitch : 0.26 Roll : -3.55 Yaw : 26.75 dYaw : 0.02 Latitude : 0 Longitude : 0 GPS Time : 0:0:1 accel(x, y, z) :  (-0.01, -0.11, 0.96)  gyro(x, y, z) :  (2.56, -2.75, 0.67)  mag(x, y, z) :  (21.79, -27.22, 22.36)  Speed (m/s): 0.00
time : 0.08 Pitch : -0.45 Roll : -3.25 Yaw : 27.52 dYaw : 0.76 Latitude : 0 Longitude : 0 GPS Time : 0:0:2 accel(x, y, z) :  (0.01, -0.10, 1.00)  gyro(x, y, z) :  (1.10, 4.21, -0.24)  mag(x, y, z) :  (21.96, -27.71, 21.96)  Speed (m/s): 0.00
time : 0.10 Pitch : -0.01 Roll : -3.21 Yaw : 27.49 dYaw : 0.03 Latitude : 0 Longitude : 0 GPS Time : 0:0:2 accel(x, y, z) :  (0.00, -0.10, 0.96)  gyro(x, y, z) :  (-2.14, -0.92, -0.43)  mag(x, y, z) :  (21.52, -27.51, 21.92)  Speed (m/s): 0.00
time : 0.13 Pitch : -0.67 Roll : -2.58 Yaw : 28.41 dYaw : 0.92 Latitude : 0 Longitude : 0 GPS Time : 0:0:2 accel(x, y, z) :  (0.02, -0.08, 1.01)  gyro(x, y, z) :  (2.32, 0.92, -3.30)  mag(x, y, z) :  (21.94, -28.39, 21.03)  Speed (m/s): 0.00
time : 0.15 Pitch : 0.32 Roll : -2.82 Yaw : 28.18 dYaw : 0.22 Latitude : 0 Longitude : 0 GPS Time : 0:0:3 accel(x, y, z) :  (-0.01, -0.09, 0.97)  gyro(x, y, z) :  (3.11, -0.73, 0.79)  mag(x, y, z) :  (21.08, -28.00, 20.69)  Speed (m/s): 0.00
time : 0.18 Pitch : -0.83 Roll : -1.89 Yaw : 29.22 dYaw : 1.04 Latitude : 0 Longitude : 0 GPS Time : 0:0:3 accel(x, y, z) :  (0.03, -0.06, 0.99)  gyro(x, y, z) :  (4.46, -0.37, -0.92)  mag(x, y, z) :  (21.23, -28.27, 20.97)  Speed (m/s): 0.00
time : 0.20 Pitch : -0.54 Roll : -1.64 Yaw : 28.34 dYaw : 0.88 Latitude : 0 Longitude : 0 GPS Time : 0:0:3 accel(x, y, z) :  (0.02, -0.05, 1.01)  gyro(x, y, z) :  (1.71, -3.17, 8.61)  mag(x, y, z) :  (21.44, -27.10, 20.34)  Speed (m/s): 0.00
time : 0.23 Pitch : -0.43 Roll : -2.02 Yaw : 26.73 dYaw : 1.60 Latitude : 0 Longitude : 0 GPS Time : 0:0:4 accel(x, y, z) :  (0.01, -0.06, 0.99)  gyro(x, y, z) :  (2.75, 0.49, 1.28)  mag(x, y, z) :  (22.00, -25.57, 21.13)  Speed (m/s): 0.00
time : 0.25 Pitch : -0.27 Roll : -1.76 Yaw : 27.22 dYaw : 0.49 Latitude : 0 Longitude : 0 GPS Time : 0:0:4 accel(x, y, z) :  (0.01, -0.05, 0.94)  gyro(x, y, z) :  (2.50, -2.75, 0.98)  mag(x, y, z) :  (22.01, -26.28, 20.70)  Speed (m/s): 0.00
time : 0.28 Pitch : -0.83 Roll : -2.06 Yaw : 27.70 dYaw : 0.48 Latitude : 0 Longitude : 0 GPS Time : 0:0:4 accel(x, y, z) :  (0.03, -0.07, 1.04)  gyro(x, y, z) :  (4.39, -0.67, -1.16)  mag(x, y, z) :  (21.41, -26.11, 21.80)  Speed (m/s): 0.00
time : 0.30 Pitch : 1.80 Roll : -2.49 Yaw : 26.24 dYaw : 1.46 Latitude : 0 Longitude : 0 GPS Time : 0:0:5 accel(x, y, z) :  (-0.06, -0.08, 1.00)  gyro(x, y, z) :  (-2.01, 4.39, 4.94)  mag(x, y, z) :  (20.92, -25.95, 22.79)  Speed (m/s): 0.00
time : 0.33 Pitch : -0.60 Roll : -0.96 Yaw : 26.53 dYaw : 0.30 Latitude : 0 Longitude : 0 GPS Time : 0:0:5 accel(x, y, z) :  (0.02, -0.03, 0.94)  gyro(x, y, z) :  (2.56, 1.95, 1.04)  mag(x, y, z) :  (22.00, -24.41, 21.17)  Speed (m/s): 0.00
time : 0.35 Pitch : 1.61 Roll : -3.09 Yaw : 23.41 dYaw : 3.12 Latitude : 0 Longitude : 0 GPS Time : 0:0:5 accel(x, y, z) :  (-0.05, -0.09, 0.90)  gyro(x, y, z) :  (13.24, -11.66, 4.03)  mag(x, y, z) :  (21.85, -23.07, 21.84)  Speed (m/s): 0.00
time : 0.37 Pitch : -1.81 Roll : -4.15 Yaw : 26.78 dYaw : 3.37 Latitude : 0 Longitude : 0 GPS Time : 0:0:5 accel(x, y, z) :  (0.06, -0.13, 1.03)  gyro(x, y, z) :  (5.25, 0.24, 0.61)  mag(x, y, z) :  (21.30, -25.16, 20.40)  Speed (m/s): 0.00
time : 0.40 Pitch : 0.50 Roll : -1.32 Yaw : 25.63 dYaw : 1.15 Latitude : 0 Longitude : 0 GPS Time : 0:0:6 accel(x, y, z) :  (-0.02, -0.04, 0.98)  gyro(x, y, z) :  (5.49, -21.73, 3.78)  mag(x, y, z) :  (21.56, -23.69, 21.42)  Speed (m/s): 0.00
time : 0.43 Pitch : -0.65 Roll : -1.21 Yaw : 26.74 dYaw : 1.11 Latitude : 0 Longitude : 0 GPS Time : 0:0:6 accel(x, y, z) :  (0.02, -0.04, 0.98)  gyro(x, y, z) :  (-6.04, -3.30, -1.04)  mag(x, y, z) :  (21.09, -23.85, 21.61)  Speed (m/s): 0.00
time : 0.45 Pitch : -0.86 Roll : -3.86 Yaw : 26.10 dYaw : 0.64 Latitude : 0 Longitude : 0 GPS Time : 0:0:6 accel(x, y, z) :  (0.03, -0.12, 1.00)  gyro(x, y, z) :  (6.71, -6.53, 2.62)  mag(x, y, z) :  (20.97, -24.63, 22.38)  Speed (m/s): 0.00
time : 0.48 Pitch : -1.01 Roll : -1.89 Yaw : 26.09 dYaw : 0.01 Latitude : 0 Longitude : 0 GPS Time : 0:0:7 accel(x, y, z) :  (0.03, -0.06, 0.99)  gyro(x, y, z) :  (2.08, -1.04, 1.22)  mag(x, y, z) :  (21.64, -23.73, 22.13)  Speed (m/s): 0.00
time : 0.50 Pitch : -0.21 Roll : -2.08 Yaw : 26.03 dYaw : 0.07 Latitude : 0 Longitude : 0 GPS Time : 0:0:7 accel(x, y, z) :  (0.01, -0.07, 1.00)  gyro(x, y, z) :  (3.11, -5.80, 1.53)  mag(x, y, z) :  (21.18, -23.94, 22.49)  Speed (m/s): 0.00
time : 0.53 Pitch : -0.09 Roll : -1.55 Yaw : 26.29 dYaw : 0.27 Latitude : 0 Longitude : 0 GPS Time : 0:0:7 accel(x, y, z) :  (0.00, -0.05, 0.96)  gyro(x, y, z) :  (1.59, -0.12, 3.36)  mag(x, y, z) :  (21.24, -24.05, 21.67)  Speed (m/s): 0.00
time : 0.55 Pitch : -0.50 Roll : -0.98 Yaw : 26.27 dYaw : 0.02 Latitude : 0 Longitude : 0 GPS Time : 0:0:8 accel(x, y, z) :  (0.02, -0.03, 0.95)  gyro(x, y, z) :  (-0.55, -2.81, 9.28)  mag(x, y, z) :  (21.53, -23.61, 21.14)  Speed (m/s): 0.00
time : 0.58 Pitch : -0.26 Roll : -1.89 Yaw : 23.10 dYaw : 3.17 Latitude : 0 Longitude : 0 GPS Time : 0:0:8 accel(x, y, z) :  (0.01, -0.06, 0.95)  gyro(x, y, z) :  (-2.44, -4.33, 10.38)  mag(x, y, z) :  (21.87, -20.65, 23.33)  Speed (m/s): 0.00
time : 0.60 Pitch : -1.02 Roll : -2.06 Yaw : 22.98 dYaw : 0.12 Latitude : 0 Longitude : 0 GPS Time : 0:0:8 accel(x, y, z) :  (0.03, -0.06, 0.94)  gyro(x, y, z) :  (3.66, 1.59, -3.78)  mag(x, y, z) :  (22.30, -20.47, 22.92)  Speed (m/s): 0.00
time : 0.62 Pitch : -1.17 Roll : -1.21 Yaw : 24.34 dYaw : 1.36 Latitude : 0 Longitude : 0 GPS Time : 0:0:9 accel(x, y, z) :  (0.04, -0.04, 0.96)  gyro(x, y, z) :  (0.98, -0.92, -1.53)  mag(x, y, z) :  (22.20, -21.34, 22.90)  Speed (m/s): 0.00
time : 0.65 Pitch : -1.88 Roll : -0.70 Yaw : 25.61 dYaw : 1.26 Latitude : 0 Longitude : 0 GPS Time : 0:0:9 accel(x, y, z) :  (0.06, -0.02, 1.01)  gyro(x, y, z) :  (2.32, 0.67, -2.81)  mag(x, y, z) :  (22.29, -22.22, 22.18)  Speed (m/s): 0.00
time : 0.68 Pitch : -0.55 Roll : -2.00 Yaw : 23.92 dYaw : 1.69 Latitude : 0 Longitude : 0 GPS Time : 0:0:9 accel(x, y, z) :  (0.02, -0.06, 0.94)  gyro(x, y, z) :  (2.99, -2.38, 3.97)  mag(x, y, z) :  (22.22, -21.80, 22.05)  Speed (m/s): 0.00
time : 0.70 Pitch : -0.21 Roll : -1.40 Yaw : 23.90 dYaw : 0.01 Latitude : 0 Longitude : 0 GPS Time : 0:0:10 accel(x, y, z) :  (0.01, -0.04, 0.92)  gyro(x, y, z) :  (-0.12, 1.10, -1.16)  mag(x, y, z) :  (22.40, -21.77, 22.25)  Speed (m/s): 0.00
time : 0.73 Pitch : -0.66 Roll : -1.12 Yaw : 25.35 dYaw : 1.44 Latitude : 0 Longitude : 0 GPS Time : 0:0:10 accel(x, y, z) :  (0.02, -0.04, 1.04)  gyro(x, y, z) :  (0.98, -1.04, 2.01)  mag(x, y, z) :  (22.08, -22.86, 21.75)  Speed (m/s): 0.00
time : 0.75 Pitch : -0.32 Roll : -1.11 Yaw : 24.39 dYaw : 0.95 Latitude : 0 Longitude : 0 GPS Time : 0:0:10 accel(x, y, z) :  (0.01, -0.03, 0.97)  gyro(x, y, z) :  (1.04, 0.06, 3.17)  mag(x, y, z) :  (22.03, -21.75, 21.29)  Speed (m/s): 0.00
time : 0.78 Pitch : 0.15 Roll : -1.32 Yaw : 23.58 dYaw : 0.81 Latitude : 0 Longitude : 0 GPS Time : 0:0:11 accel(x, y, z) :  (-0.00, -0.04, 0.95)  gyro(x, y, z) :  (0.12, -1.71, 3.91)  mag(x, y, z) :  (22.46, -21.56, 21.77)  Speed (m/s): 0.00
time : 0.80 Pitch : -0.73 Roll : -1.31 Yaw : 23.62 dYaw : 0.04 Latitude : 0 Longitude : 0 GPS Time : 0:0:11 accel(x, y, z) :  (0.02, -0.04, 0.96)  gyro(x, y, z) :  (1.89, -0.85, 2.44)  mag(x, y, z) :  (22.51, -21.08, 22.30)  Speed (m/s): 0.00
time : 0.83 Pitch : -0.70 Roll : -1.51 Yaw : 23.26 dYaw : 0.36 Latitude : 0 Longitude : 0 GPS Time : 0:0:11 accel(x, y, z) :  (0.02, -0.05, 0.99)  gyro(x, y, z) :  (2.01, -0.18, 1.46)  mag(x, y, z) :  (22.62, -20.85, 20.84)  Speed (m/s): 0.00
time : 0.85 Pitch : -0.25 Roll : -1.35 Yaw : 22.05 dYaw : 1.21 Latitude : 0 Longitude : 0 GPS Time : 0:0:12 accel(x, y, z) :  (0.01, -0.04, 0.97)  gyro(x, y, z) :  (1.89, -1.65, 3.66)  mag(x, y, z) :  (22.91, -19.81, 22.02)  Speed (m/s): 0.00
time : 0.88 Pitch : -0.70 Roll : -1.55 Yaw : 22.16 dYaw : 0.12 Latitude : 0 Longitude : 0 GPS Time : 0:0:12 accel(x, y, z) :  (0.02, -0.05, 1.02)  gyro(x, y, z) :  (3.17, -0.37, 3.72)  mag(x, y, z) :  (22.78, -19.71, 21.98)  Speed (m/s): 0.00
time : 0.90 Pitch : -0.76 Roll : -1.20 Yaw : 22.18 dYaw : 0.01 Latitude : 0 Longitude : 0 GPS Time : 0:0:12 accel(x, y, z) :  (0.02, -0.04, 0.96)  gyro(x, y, z) :  (0.73, -0.43, 3.48)  mag(x, y, z) :  (22.57, -19.26, 21.68)  Speed (m/s): 0.00
time : 0.93 Pitch : -1.20 Roll : -0.58 Yaw : 22.76 dYaw : 0.58 Latitude : 0 Longitude : 0 GPS Time : 0:0:13 accel(x, y, z) :  (0.04, -0.02, 1.00)  gyro(x, y, z) :  (1.89, 0.49, -1.77)  mag(x, y, z) :  (22.86, -19.51, 22.49)  Speed (m/s): 0.00
time : 0.95 Pitch : 0.33 Roll : -1.80 Yaw : 21.51 dYaw : 1.25 Latitude : 0 Longitude : 0 GPS Time : 0:0:13 accel(x, y, z) :  (-0.01, -0.05, 0.95)  gyro(x, y, z) :  (1.71, 0.92, 0.79)  mag(x, y, z) :  (22.62, -19.60, 22.00)  Speed (m/s): 0.00
time : 0.98 Pitch : -0.34 Roll : -0.82 Yaw : 22.18 dYaw : 0.67 Latitude : 0 Longitude : 0 GPS Time : 0:0:13 accel(x, y, z) :  (0.01, -0.03, 1.01)  gyro(x, y, z) :  (2.81, -0.43, 0.24)  mag(x, y, z) :  (23.06, -19.67, 21.41)  Speed (m/s): 0.00
time : 1.00 Pitch : 0.66 Roll : -1.42 Yaw : 22.71 dYaw : 0.52 Latitude : 0 Longitude : 0 GPS Time : 0:0:14 accel(x, y, z) :  (-0.02, -0.04, 0.95)  gyro(x, y, z) :  (2.26, -0.92, 0.31)  mag(x, y, z) :  (22.01, -20.48, 22.50)  Speed (m/s): 0.00
time : 1.03 Pitch : 0.15 Roll : -1.58 Yaw : 22.55 dYaw : 0.16 Latitude : 0 Longitude : 0 GPS Time : 0:0:14 accel(x, y, z) :  (-0.00, -0.05, 0.95)  gyro(x, y, z) :  (1.46, 1.71, 0.79)  mag(x, y, z) :  (22.23, -20.30, 23.00)  Speed (m/s): 0.00
time : 1.05 Pitch : 1.02 Roll : -1.66 Yaw : 21.80 dYaw : 0.74 Latitude : 0 Longitude : 0 GPS Time : 0:0:14 accel(x, y, z) :  (-0.03, -0.05, 0.93)  gyro(x, y, z) :  (-0.67, -1.04, 1.40)  mag(x, y, z) :  (22.06, -19.75, 21.59)  Speed (m/s): 0.00
time : 1.07 Pitch : -1.41 Roll : -0.17 Yaw : 23.34 dYaw : 1.54 Latitude : 0 Longitude : 0 GPS Time : 0:0:15 accel(x, y, z) :  (0.04, -0.01, 0.99)  gyro(x, y, z) :  (4.52, 3.91, 0.12)  mag(x, y, z) :  (22.75, -19.81, 19.13)  Speed (m/s): 0.00
time : 1.10 Pitch : 1.24 Roll : -1.59 Yaw : 20.61 dYaw : 2.74 Latitude : 0 Longitude : 0 GPS Time : 0:0:15 accel(x, y, z) :  (-0.04, -0.05, 0.96)  gyro(x, y, z) :  (3.66, -0.73, 6.59)  mag(x, y, z) :  (23.12, -19.17, 20.70)  Speed (m/s): 0.00
time : 1.12 Pitch : -2.12 Roll : -1.51 Yaw : 18.44 dYaw : 2.17 Latitude : 0 Longitude : 0 GPS Time : 0:0:15 accel(x, y, z) :  (0.07, -0.05, 1.00)  gyro(x, y, z) :  (7.75, -2.81, 39.31)  mag(x, y, z) :  (24.34, -15.95, 21.68)  Speed (m/s): 0.00
time : 1.15 Pitch : -2.01 Roll : -1.51 Yaw : 5.33 dYaw : 13.11 Latitude : 0 Longitude : 0 GPS Time : 0:0:16 accel(x, y, z) :  (0.06, -0.05, 0.98)  gyro(x, y, z) :  (3.05, -1.28, 37.84)  mag(x, y, z) :  (22.12, -4.53, 21.62)  Speed (m/s): 0.00
time : 1.17 Pitch : -0.65 Roll : -1.66 Yaw : 1.41 dYaw : 3.92 Latitude : 0 Longitude : 0 GPS Time : 0:0:16 accel(x, y, z) :  (0.02, -0.05, 0.95)  gyro(x, y, z) :  (11.60, -8.85, 18.55)  mag(x, y, z) :  (20.94, -2.00, 20.85)  Speed (m/s): 0.00
time : 1.20 Pitch : -1.81 Roll : -2.20 Yaw : 0.03 dYaw : 1.38 Latitude : 0 Longitude : 0 GPS Time : 0:0:16 accel(x, y, z) :  (0.06, -0.07, 1.05)  gyro(x, y, z) :  (-1.28, 4.09, -7.20)  mag(x, y, z) :  (19.63, -1.54, 21.96)  Speed (m/s): 0.00
time : 1.22 Pitch : 0.18 Roll : -4.10 Yaw : 2.89 dYaw : 2.86 Latitude : 0 Longitude : 0 GPS Time : 0:0:17 accel(x, y, z) :  (-0.01, -0.13, 0.98)  gyro(x, y, z) :  (4.33, -2.56, -6.53)  mag(x, y, z) :  (19.32, -4.48, 20.81)  Speed (m/s): 0.00
time : 1.25 Pitch : -0.24 Roll : -3.64 Yaw : 3.06 dYaw : 0.16 Latitude : 0 Longitude : 0 GPS Time : 0:0:17 accel(x, y, z) :  (0.01, -0.12, 1.05)  gyro(x, y, z) :  (4.58, -0.79, 14.22)  mag(x, y, z) :  (19.34, -4.30, 21.24)  Speed (m/s): 0.00
time : 1.28 Pitch : -1.69 Roll : -4.44 Yaw : -2.49 dYaw : 5.54 Latitude : 0 Longitude : 0 GPS Time : 0:0:17 accel(x, y, z) :  (0.05, -0.13, 0.95)  gyro(x, y, z) :  (-2.81, -9.58, 13.98)  mag(x, y, z) :  (17.04, -1.68, 20.94)  Speed (m/s): 0.00
time : 1.30 Pitch : -1.10 Roll : -3.23 Yaw : -2.97 dYaw : 0.49 Latitude : 0 Longitude : 0 GPS Time : 0:0:18 accel(x, y, z) :  (0.03, -0.10, 0.99)  gyro(x, y, z) :  (0.43, 1.22, -2.62)  mag(x, y, z) :  (17.04, -0.61, 21.07)  Speed (m/s): 0.00
time : 1.33 Pitch : 0.00 Roll : -3.92 Yaw : -4.15 dYaw : 1.17 Latitude : 0 Longitude : 0 GPS Time : 0:0:18 accel(x, y, z) :  (-0.00, -0.12, 0.97)  gyro(x, y, z) :  (1.40, 1.46, -3.42)  mag(x, y, z) :  (16.78, -0.31, 20.40)  Speed (m/s): 0.00
time : 1.35 Pitch : 0.12 Roll : -3.20 Yaw : -6.77 dYaw : 2.62 Latitude : 0 Longitude : 0 GPS Time : 0:0:18 accel(x, y, z) :  (-0.00, -0.09, 0.92)  gyro(x, y, z) :  (2.01, -4.94, 16.30)  mag(x, y, z) :  (15.58, 1.17, 22.11)  Speed (m/s): 0.00
time : 1.37 Pitch : -0.90 Roll : -2.12 Yaw : -8.28 dYaw : 1.51 Latitude : 0 Longitude : 0 GPS Time : 0:0:19 accel(x, y, z) :  (0.03, -0.07, 1.02)  gyro(x, y, z) :  (-0.31, 2.20, 7.63)  mag(x, y, z) :  (14.44, 2.31, 20.81)  Speed (m/s): 0.00
time : 1.40 Pitch : -2.40 Roll : -3.69 Yaw : -17.10 dYaw : 8.82 Latitude : 0 Longitude : 0 GPS Time : 0:0:19 accel(x, y, z) :  (0.08, -0.12, 1.02)  gyro(x, y, z) :  (3.36, 6.71, 10.19)  mag(x, y, z) :  (12.24, 4.14, 19.85)  Speed (m/s): 0.00
time : 1.42 Pitch : 1.41 Roll : -3.24 Yaw : -12.81 dYaw : 4.28 Latitude : 0 Longitude : 0 GPS Time : 0:0:19 accel(x, y, z) :  (-0.04, -0.10, 0.93)  gyro(x, y, z) :  (-0.61, 3.85, -6.96)  mag(x, y, z) :  (12.28, 3.56, 20.19)  Speed (m/s): 0.00
time : 1.45 Pitch : 1.86 Roll : -2.67 Yaw : -18.15 dYaw : 5.34 Latitude : 0 Longitude : 0 GPS Time : 0:0:20 accel(x, y, z) :  (-0.05, -0.08, 0.89)  gyro(x, y, z) :  (0.12, -2.99, 15.56)  mag(x, y, z) :  (9.86, 5.43, 19.07)  Speed (m/s): 0.00
time : 1.47 Pitch : 0.01 Roll : -3.02 Yaw : -26.90 dYaw : 8.75 Latitude : 0 Longitude : 0 GPS Time : 0:0:20 accel(x, y, z) :  (-0.00, -0.09, 0.95)  gyro(x, y, z) :  (-1.10, -7.14, -0.12)  mag(x, y, z) :  (7.84, 7.08, 18.93)  Speed (m/s): 0.00
time : 1.50 Pitch : -0.06 Roll : -0.71 Yaw : -23.97 dYaw : 2.94 Latitude : 0 Longitude : 0 GPS Time : 0:0:20 accel(x, y, z) :  (0.00, -0.02, 0.99)  gyro(x, y, z) :  (7.39, -0.18, 2.81)  mag(x, y, z) :  (8.28, 7.29, 19.62)  Speed (m/s): 0.00
time : 1.53 Pitch : -2.39 Roll : -1.05 Yaw : -29.16 dYaw : 5.19 Latitude : 0 Longitude : 0 GPS Time : 0:0:21 accel(x, y, z) :  (0.08, -0.03, 1.01)  gyro(x, y, z) :  (-1.04, 5.55, 2.08)  mag(x, y, z) :  (7.78, 7.48, 20.29)  Speed (m/s): 0.00
time : 1.55 Pitch : -0.40 Roll : -0.38 Yaw : -28.49 dYaw : 0.67 Latitude : 0 Longitude : 0 GPS Time : 0:0:21 accel(x, y, z) :  (0.01, -0.01, 0.96)  gyro(x, y, z) :  (-7.32, -1.40, 18.49)  mag(x, y, z) :  (6.32, 7.37, 18.66)  Speed (m/s): 0.00
time : 1.58 Pitch : -0.57 Roll : -4.03 Yaw : -40.90 dYaw : 12.41 Latitude : 0 Longitude : 0 GPS Time : 0:0:21 accel(x, y, z) :  (0.02, -0.13, 0.99)  gyro(x, y, z) :  (15.08, 4.88, 17.15)  mag(x, y, z) :  (3.55, 8.69, 18.84)  Speed (m/s): 0.00
time : 1.60 Pitch : 1.69 Roll : -4.63 Yaw : -45.88 dYaw : 4.99 Latitude : 0 Longitude : 0 GPS Time : 0:0:22 accel(x, y, z) :  (-0.05, -0.13, 0.89)  gyro(x, y, z) :  (2.32, 1.89, 6.77)  mag(x, y, z) :  (0.42, 8.15, 20.83)  Speed (m/s): 0.00
time : 1.62 Pitch : 1.87 Roll : -4.17 Yaw : -48.50 dYaw : 2.62 Latitude : 0 Longitude : 0 GPS Time : 0:0:22 accel(x, y, z) :  (-0.06, -0.13, 0.98)  gyro(x, y, z) :  (-3.97, -12.70, 8.48)  mag(x, y, z) :  (-0.56, 8.92, 20.07)  Speed (m/s): 0.00
time : 1.65 Pitch : -1.20 Roll : 0.79 Yaw : -61.24 dYaw : 12.74 Latitude : 0 Longitude : 0 GPS Time : 0:0:22 accel(x, y, z) :  (0.04, 0.02, 0.93)  gyro(x, y, z) :  (-1.10, -5.25, 12.15)  mag(x, y, z) :  (-3.05, 10.85, 19.96)  Speed (m/s): 0.00
time : 1.67 Pitch : 1.30 Roll : 0.53 Yaw : -69.31 dYaw : 8.07 Latitude : 0 Longitude : 0 GPS Time : 0:0:23 accel(x, y, z) :  (-0.04, 0.02, 0.95)  gyro(x, y, z) :  (15.38, -7.51, 13.24)  mag(x, y, z) :  (-7.81, 10.35, 21.15)  Speed (m/s): 0.00
time : 1.70 Pitch : -0.74 Roll : -3.57 Yaw : -72.72 dYaw : 3.41 Latitude : 0 Longitude : 0 GPS Time : 0:0:23 accel(x, y, z) :  (0.02, -0.10, 0.93)  gyro(x, y, z) :  (15.93, -0.18, 0.92)  mag(x, y, z) :  (-8.90, 8.46, 21.69)  Speed (m/s): 0.00
time : 1.72 Pitch : 3.81 Roll : -7.07 Yaw : -67.58 dYaw : 5.14 Latitude : 0 Longitude : 0 GPS Time : 0:0:23 accel(x, y, z) :  (-0.11, -0.21, 0.93)  gyro(x, y, z) :  (3.72, -3.97, 5.68)  mag(x, y, z) :  (-9.63, 7.30, 21.26)  Speed (m/s): 0.00
time : 1.75 Pitch : 1.24 Roll : -3.19 Yaw : -73.14 dYaw : 5.56 Latitude : 0 Longitude : 0 GPS Time : 0:0:24 accel(x, y, z) :  (-0.04, -0.10, 0.97)  gyro(x, y, z) :  (-3.48, 1.22, 1.22)  mag(x, y, z) :  (-9.77, 8.04, 20.92)  Speed (m/s): 0.00
time : 1.78 Pitch : 1.36 Roll : -0.83 Yaw : -75.21 dYaw : 2.07 Latitude : 0 Longitude : 0 GPS Time : 11:30:20 accel(x, y, z) :  (-0.04, -0.02, 0.89)  gyro(x, y, z) :  (-13.73, 2.56, -0.18)  mag(x, y, z) :  (-10.62, 9.07, 20.69)  Speed (m/s): 0.00
time : 1.80 Pitch : -2.26 Roll : 4.29 Yaw : -79.22 dYaw : 4.01 Latitude : 0 Longitude : 0 GPS Time : 11:30:20 accel(x, y, z) :  (0.06, 0.12, 0.90)  gyro(x, y, z) :  (0.24, -4.76, -3.54)  mag(x, y, z) :  (-10.30, 11.65, 19.12)  Speed (m/s): 0.00
time : 1.83 Pitch : 0.90 Roll : 2.35 Yaw : -64.86 dYaw : 14.36 Latitude : 0 Longitude : 0 GPS Time : 11:30:21 accel(x, y, z) :  (-0.03, 0.07, 0.94)  gyro(x, y, z) :  (10.07, -6.41, -14.53)  mag(x, y, z) :  (-5.73, 11.72, 21.33)  Speed (m/s): 0.00
time : 1.85 Pitch : -0.91 Roll : 0.69 Yaw : -54.79 dYaw : 10.07 Latitude : 0 Longitude : 0 GPS Time : 11:30:21 accel(x, y, z) :  (0.03, 0.02, 0.88)  gyro(x, y, z) :  (3.91, -2.32, -12.82)  mag(x, y, z) :  (-0.59, 8.81, 23.25)  Speed (m/s): 0.00
time : 1.87 Pitch : 0.08 Roll : -1.64 Yaw : -57.87 dYaw : 3.08 Latitude : 0 Longitude : 0 GPS Time : 11:30:22 accel(x, y, z) :  (-0.00, -0.05, 0.95)  gyro(x, y, z) :  (5.68, 1.16, 6.16)  mag(x, y, z) :  (-2.32, 7.76, 23.57)  Speed (m/s): 0.00
time : 1.90 Pitch : 0.26 Roll : -2.74 Yaw : -59.90 dYaw : 2.03 Latitude : 0 Longitude : 0 GPS Time : 11:30:22 accel(x, y, z) :  (-0.01, -0.08, 0.98)  gyro(x, y, z) :  (3.36, 2.62, -7.39)  mag(x, y, z) :  (-2.95, 6.52, 24.35)  Speed (m/s): 0.00
time : 1.92 Pitch : -0.16 Roll : -1.20 Yaw : -56.29 dYaw : 3.61 Latitude : 0 Longitude : 0 GPS Time : 11:30:23 accel(x, y, z) :  (0.01, -0.04, 0.99)  gyro(x, y, z) :  (3.05, -0.49, 2.32)  mag(x, y, z) :  (-1.34, 6.41, 24.57)  Speed (m/s): 0.00
time : 1.95 Pitch : 0.20 Roll : -1.83 Yaw : -54.94 dYaw : 1.35 Latitude : 0 Longitude : 0 GPS Time : 11:30:23 accel(x, y, z) :  (-0.01, -0.06, 0.96)  gyro(x, y, z) :  (1.95, 3.23, 1.77)  mag(x, y, z) :  (-1.38, 6.57, 23.30)  Speed (m/s): 0.00
time : 1.98 Pitch : -1.33 Roll : 0.93 Yaw : -60.31 dYaw : 5.37 Latitude : 0 Longitude : 0 GPS Time : 11:30:24 accel(x, y, z) :  (0.04, 0.03, 0.96)  gyro(x, y, z) :  (0.43, 0.85, 13.49)  mag(x, y, z) :  (-1.22, 7.35, 24.02)  Speed (m/s): 0.00
time : 2.00 Pitch : -0.46 Roll : -2.86 Yaw : -63.75 dYaw : 3.43 Latitude : 0 Longitude : 0 GPS Time : 11:30:24 accel(x, y, z) :  (0.01, -0.09, 0.99)  gyro(x, y, z) :  (0.85, 1.65, 13.85)  mag(x, y, z) :  (-4.09, 7.48, 23.90)  Speed (m/s): 0.00
time : 2.02 Pitch : -2.91 Roll : -2.33 Yaw : -70.93 dYaw : 7.18 Latitude : 0 Longitude : 0 GPS Time : 11:30:25 accel(x, y, z) :  (0.09, -0.07, 1.00)  gyro(x, y, z) :  (1.22, -4.09, 11.90)  mag(x, y, z) :  (-5.03, 7.48, 23.16)  Speed (m/s): 0.00
time : 2.05 Pitch : -0.49 Roll : -0.27 Yaw : -75.19 dYaw : 4.27 Latitude : 0 Longitude : 0 GPS Time : 11:30:25 accel(x, y, z) :  (0.01, -0.01, 0.89)  gyro(x, y, z) :  (-7.93, 5.00, 6.77)  mag(x, y, z) :  (-8.04, 8.11, 24.04)  Speed (m/s): 0.00
time : 2.08 Pitch : -1.31 Roll : -2.20 Yaw : -74.24 dYaw : 0.96 Latitude : 0 Longitude : 0 GPS Time : 11:30:26 accel(x, y, z) :  (0.04, -0.07, 1.06)  gyro(x, y, z) :  (7.57, -3.42, 7.39)  mag(x, y, z) :  (-8.31, 8.11, 23.40)  Speed (m/s): 0.00
time : 2.10 Pitch : 1.93 Roll : -1.63 Yaw : -72.80 dYaw : 1.44 Latitude : 0 Longitude : 0 GPS Time : 11:30:26 accel(x, y, z) :  (-0.06, -0.05, 0.92)  gyro(x, y, z) :  (-2.44, 1.04, -13.00)  mag(x, y, z) :  (-9.47, 8.04, 23.66)  Speed (m/s): 0.00
time : 2.12 Pitch : 3.74 Roll : -1.87 Yaw : -70.91 dYaw : 1.89 Latitude : 0 Longitude : 0 GPS Time : 11:30:27 accel(x, y, z) :  (-0.10, -0.05, 0.82)  gyro(x, y, z) :  (11.05, -12.70, 16.11)  mag(x, y, z) :  (-9.24, 7.12, 23.10)  Speed (m/s): 0.00
time : 2.15 Pitch : -5.64 Roll : -1.13 Yaw : -77.85 dYaw : 6.94 Latitude : 0 Longitude : 0 GPS Time : 11:30:27 accel(x, y, z) :  (0.21, -0.04, 1.18)  gyro(x, y, z) :  (-3.78, -2.99, -14.59)  mag(x, y, z) :  (-6.96, 8.35, 23.91)  Speed (m/s): 0.00
time : 2.18 Pitch : 2.36 Roll : -1.47 Yaw : -64.26 dYaw : 13.59 Latitude : 0 Longitude : 0 GPS Time : 11:30:28 accel(x, y, z) :  (-0.08, -0.05, 1.05)  gyro(x, y, z) :  (-3.66, -6.65, -12.33)  mag(x, y, z) :  (-6.45, 8.61, 24.15)  Speed (m/s): 0.00
time : 2.20 Pitch : -2.57 Roll : 1.69 Yaw : -72.04 dYaw : 7.77 Latitude : 0 Longitude : 0 GPS Time : 11:30:28 accel(x, y, z) :  (0.08, 0.05, 1.02)  gyro(x, y, z) :  (1.04, 2.62, -4.03)  mag(x, y, z) :  (-4.16, 8.67, 24.00)  Speed (m/s): 0.00
time : 2.22 Pitch : -0.37 Roll : 0.23 Yaw : -56.62 dYaw : 15.41 Latitude : 0 Longitude : 0 GPS Time : 11:30:29 accel(x, y, z) :  (0.01, 0.01, 0.99)  gyro(x, y, z) :  (5.25, 5.43, 5.43)  mag(x, y, z) :  (-1.59, 9.01, 23.86)  Speed (m/s): 0.00
time : 2.25 Pitch : -3.22 Roll : 0.14 Yaw : -65.81 dYaw : 9.19 Latitude : 0 Longitude : 0 GPS Time : 11:30:29 accel(x, y, z) :  (0.10, 0.00, 0.97)  gyro(x, y, z) :  (5.37, 1.95, 11.60)  mag(x, y, z) :  (-1.92, 8.39, 25.54)  Speed (m/s): 0.00
time : 2.27 Pitch : -2.29 Roll : 0.07 Yaw : -64.09 dYaw : 1.72 Latitude : 0 Longitude : 0 GPS Time : 11:30:30 accel(x, y, z) :  (0.07, 0.00, 0.95)  gyro(x, y, z) :  (-1.89, 3.05, -0.67)  mag(x, y, z) :  (-2.03, 8.11, 24.90)  Speed (m/s): 0.00
time : 2.30 Pitch : -2.97 Roll : -1.77 Yaw : -63.31 dYaw : 0.78 Latitude : 0 Longitude : 0 GPS Time : 11:30:30 accel(x, y, z) :  (0.09, -0.05, 0.98)  gyro(x, y, z) :  (2.50, 0.67, 10.86)  mag(x, y, z) :  (-2.36, 9.02, 24.93)  Speed (m/s): 0.00
time : 2.33 Pitch : -4.08 Roll : -0.31 Yaw : -71.09 dYaw : 7.79 Latitude : 0 Longitude : 0 GPS Time : 11:30:31 accel(x, y, z) :  (0.13, -0.01, 1.00)  gyro(x, y, z) :  (2.32, 0.24, 3.17)  mag(x, y, z) :  (-4.02, 8.86, 24.51)  Speed (m/s): 0.00
time : 2.35 Pitch : -3.78 Roll : -0.61 Yaw : -73.41 dYaw : 2.32 Latitude : 0 Longitude : 0 GPS Time : 11:30:31 accel(x, y, z) :  (0.12, -0.02, 0.97)  gyro(x, y, z) :  (2.69, -3.85, 5.98)  mag(x, y, z) :  (-5.00, 8.30, 25.35)  Speed (m/s): 0.00
time : 2.37 Pitch : -2.87 Roll : -1.39 Yaw : -72.27 dYaw : 1.13 Latitude : 0 Longitude : 0 GPS Time : 11:30:32 accel(x, y, z) :  (0.09, -0.04, 0.98)  gyro(x, y, z) :  (0.61, -3.36, 2.69)  mag(x, y, z) :  (-5.62, 8.20, 25.12)  Speed (m/s): 0.00
time : 2.40 Pitch : -4.86 Roll : 0.03 Yaw : -77.93 dYaw : 5.66 Latitude : 0 Longitude : 0 GPS Time : 11:30:32 accel(x, y, z) :  (0.15, 0.00, 0.96)  gyro(x, y, z) :  (0.49, 1.34, 14.59)  mag(x, y, z) :  (-5.64, 7.82, 25.06)  Speed (m/s): 0.00
time : 2.43 Pitch : -2.52 Roll : -2.16 Yaw : -79.14 dYaw : 1.20 Latitude : 0 Longitude : 0 GPS Time : 11:30:33 accel(x, y, z) :  (0.08, -0.07, 0.97)  gyro(x, y, z) :  (9.58, -7.20, 9.40)  mag(x, y, z) :  (-9.74, 7.26, 26.64)  Speed (m/s): 0.00
time : 2.45 Pitch : -1.46 Roll : -4.66 Yaw : -83.95 dYaw : 4.82 Latitude : 0 Longitude : 0 GPS Time : 11:30:33 accel(x, y, z) :  (0.05, -0.15, 1.00)  gyro(x, y, z) :  (7.26, -2.50, 23.32)  mag(x, y, z) :  (-15.26, 5.27, 26.21)  Speed (m/s): 0.00
time : 2.47 Pitch : 2.75 Roll : -7.04 Yaw : -86.84 dYaw : 2.89 Latitude : 0 Longitude : 0 GPS Time : 11:30:34 accel(x, y, z) :  (-0.08, -0.21, 0.95)  gyro(x, y, z) :  (8.12, -14.77, -0.92)  mag(x, y, z) :  (-20.80, 2.73, 25.15)  Speed (m/s): 0.00
time : 2.50 Pitch : 2.35 Roll : -3.02 Yaw : -91.45 dYaw : 4.60 Latitude : 0 Longitude : 0 GPS Time : 11:30:34 accel(x, y, z) :  (-0.08, -0.10, 1.04)  gyro(x, y, z) :  (-4.52, 12.02, 4.03)  mag(x, y, z) :  (-21.13, 2.97, 24.85)  Speed (m/s): 0.00
time : 2.53 Pitch : -0.07 Roll : -2.58 Yaw : -92.35 dYaw : 0.91 Latitude : 0 Longitude : 0 GPS Time : 11:30:35 accel(x, y, z) :  (0.00, -0.09, 1.05)  gyro(x, y, z) :  (-1.77, 15.26, 15.26)  mag(x, y, z) :  (-19.93, 2.80, 26.09)  Speed (m/s): 0.00
time : 2.55 Pitch : 2.02 Roll : -5.78 Yaw : -87.72 dYaw : 4.64 Latitude : 0 Longitude : 0 GPS Time : 11:30:35 accel(x, y, z) :  (-0.06, -0.17, 0.90)  gyro(x, y, z) :  (-5.80, 1.16, -3.23)  mag(x, y, z) :  (-20.28, 2.93, 25.99)  Speed (m/s): 0.00
time : 2.58 Pitch : -0.29 Roll : -3.03 Yaw : -88.03 dYaw : 0.31 Latitude : 0 Longitude : 0 GPS Time : 11:30:36 accel(x, y, z) :  (0.01, -0.09, 0.98)  gyro(x, y, z) :  (-2.38, -6.35, 4.03)  mag(x, y, z) :  (-17.99, 4.69, 26.66)  Speed (m/s): 0.00
time : 2.60 Pitch : -0.89 Roll : -3.19 Yaw : -87.75 dYaw : 0.27 Latitude : 0 Longitude : 0 GPS Time : 11:30:36 accel(x, y, z) :  (0.03, -0.10, 0.99)  gyro(x, y, z) :  (-11.17, -10.13, -2.99)  mag(x, y, z) :  (-19.04, 5.59, 24.07)  Speed (m/s): 0.00
time : 2.62 Pitch : -1.39 Roll : 0.26 Yaw : -89.63 dYaw : 1.87 Latitude : 0 Longitude : 0 GPS Time : 11:30:37 accel(x, y, z) :  (0.04, 0.01, 0.99)  gyro(x, y, z) :  (3.05, 7.75, -2.20)  mag(x, y, z) :  (-17.37, 6.46, 25.72)  Speed (m/s): 0.00
time : 2.65 Pitch : -0.42 Roll : -1.17 Yaw : -86.69 dYaw : 2.93 Latitude : 0 Longitude : 0 GPS Time : 11:30:37 accel(x, y, z) :  (0.01, -0.03, 0.93)  gyro(x, y, z) :  (4.58, -1.34, -1.10)  mag(x, y, z) :  (-16.26, 6.47, 24.52)  Speed (m/s): 0.00
time : 2.68 Pitch : -0.49 Roll : -1.25 Yaw : -86.98 dYaw : 0.29 Latitude : 0 Longitude : 0 GPS Time : 11:30:38 accel(x, y, z) :  (0.01, -0.04, 0.96)  gyro(x, y, z) :  (3.11, -4.39, 6.10)  mag(x, y, z) :  (-16.22, 6.26, 23.79)  Speed (m/s): 0.00
time : 2.70 Pitch : -2.45 Roll : -0.78 Yaw : -89.72 dYaw : 2.74 Latitude : 0 Longitude : 0 GPS Time : 11:30:38 accel(x, y, z) :  (0.08, -0.02, 1.01)  gyro(x, y, z) :  (2.32, -1.04, 3.36)  mag(x, y, z) :  (-17.21, 5.77, 24.55)  Speed (m/s): 0.00
time : 2.72 Pitch : -1.21 Roll : -1.36 Yaw : -88.48 dYaw : 1.24 Latitude : 0 Longitude : 0 GPS Time : 11:30:39 accel(x, y, z) :  (0.04, -0.04, 0.96)  gyro(x, y, z) :  (2.69, 0.49, 0.61)  mag(x, y, z) :  (-16.89, 5.69, 24.89)  Speed (m/s): 0.00
time : 2.75 Pitch : -0.91 Roll : -0.07 Yaw : -90.08 dYaw : 1.59 Latitude : 0 Longitude : 0 GPS Time : 11:30:39 accel(x, y, z) :  (0.03, -0.00, 0.90)  gyro(x, y, z) :  (-1.65, -9.16, -9.58)  mag(x, y, z) :  (-18.09, 5.99, 23.61)  Speed (m/s): 0.00
time : 2.78 Pitch : 1.67 Roll : 0.34 Yaw : -86.07 dYaw : 4.01 Latitude : 0 Longitude : 0 GPS Time : 11:30:40 accel(x, y, z) :  (-0.05, 0.01, 0.93)  gyro(x, y, z) :  (3.66, -4.64, -0.43)  mag(x, y, z) :  (-16.94, 7.60, 22.72)  Speed (m/s): 0.00
time : 2.80 Pitch : -1.19 Roll : 0.94 Yaw : -85.80 dYaw : 0.27 Latitude : 0 Longitude : 0 GPS Time : 11:30:40 accel(x, y, z) :  (0.04, 0.03, 0.95)  gyro(x, y, z) :  (5.19, 0.00, 3.36)  mag(x, y, z) :  (-14.56, 8.01, 22.00)  Speed (m/s): 0.00
time : 2.83 Pitch : -2.89 Roll : -0.55 Yaw : -87.45 dYaw : 1.65 Latitude : 0 Longitude : 0 GPS Time : 11:30:41 accel(x, y, z) :  (0.09, -0.02, 1.02)  gyro(x, y, z) :  (3.11, -2.93, 0.18)  mag(x, y, z) :  (-15.23, 6.79, 23.44)  Speed (m/s): 0.00
time : 2.85 Pitch : -1.71 Roll : -0.48 Yaw : -87.20 dYaw : 0.25 Latitude : 0 Longitude : 0 GPS Time : 11:30:41 accel(x, y, z) :  (0.05, -0.02, 1.00)  gyro(x, y, z) :  (2.69, -0.43, 3.23)  mag(x, y, z) :  (-15.84, 6.92, 25.20)  Speed (m/s): 0.00
time : 2.87 Pitch : -0.88 Roll : -1.27 Yaw : -88.34 dYaw : 1.14 Latitude : 0 Longitude : 0 GPS Time : 11:30:42 accel(x, y, z) :  (0.03, -0.04, 1.00)  gyro(x, y, z) :  (3.05, -1.89, 0.18)  mag(x, y, z) :  (-15.77, 5.32, 25.05)  Speed (m/s): 0.00
time : 2.90 Pitch : -1.65 Roll : -1.19 Yaw : -86.90 dYaw : 1.43 Latitude : 0 Longitude : 0 GPS Time : 11:30:42 accel(x, y, z) :  (0.05, -0.04, 0.97)  gyro(x, y, z) :  (2.26, -0.37, -0.61)  mag(x, y, z) :  (-16.10, 6.64, 25.26)  Speed (m/s): 0.00
time : 2.93 Pitch : -1.47 Roll : -1.17 Yaw : -85.32 dYaw : 1.58 Latitude : 0 Longitude : 0 GPS Time : 11:30:43 accel(x, y, z) :  (0.05, -0.04, 0.98)  gyro(x, y, z) :  (3.42, 1.40, 3.36)  mag(x, y, z) :  (-14.97, 7.08, 25.07)  Speed (m/s): 0.00
time : 2.95 Pitch : -0.14 Roll : -1.75 Yaw : -84.97 dYaw : 0.36 Latitude : 0 Longitude : 0 GPS Time : 11:30:43 accel(x, y, z) :  (0.00, -0.05, 0.95)  gyro(x, y, z) :  (1.53, -1.59, -1.22)  mag(x, y, z) :  (-15.42, 6.59, 24.58)  Speed (m/s): 0.00
time : 2.98 Pitch : -1.13 Roll : -0.65 Yaw : -84.16 dYaw : 0.80 Latitude : 0 Longitude : 0 GPS Time : 11:30:44 accel(x, y, z) :  (0.04, -0.02, 1.00)  gyro(x, y, z) :  (1.40, -0.55, -9.03)  mag(x, y, z) :  (-13.73, 7.42, 24.17)  Speed (m/s): 0.00
time : 3.00 Pitch : -1.41 Roll : -1.04 Yaw : -81.06 dYaw : 3.11 Latitude : 0 Longitude : 0 GPS Time : 11:30:44 accel(x, y, z) :  (0.05, -0.03, 1.05)  gyro(x, y, z) :  (2.14, 0.92, -13.73)  mag(x, y, z) :  (-11.32, 7.58, 24.15)  Speed (m/s): 0.00
time : 3.03 Pitch : -3.97 Roll : 0.22 Yaw : -82.10 dYaw : 1.04 Latitude : 0 Longitude : 0 GPS Time : 11:30:45 accel(x, y, z) :  (0.13, 0.01, 1.05)  gyro(x, y, z) :  (2.26, 9.22, 3.48)  mag(x, y, z) :  (-10.68, 8.85, 25.46)  Speed (m/s): 0.00
time : 3.05 Pitch : -3.54 Roll : 2.86 Yaw : -85.14 dYaw : 3.03 Latitude : 0 Longitude : 0 GPS Time : 11:30:45 accel(x, y, z) :  (0.12, 0.10, 1.09)  gyro(x, y, z) :  (4.03, 0.06, -3.30)  mag(x, y, z) :  (-8.96, 8.51, 27.12)  Speed (m/s): 0.00
time : 3.08 Pitch : -2.56 Roll : -1.03 Yaw : -71.05 dYaw : 14.09 Latitude : 0 Longitude : 0 GPS Time : 11:30:46 accel(x, y, z) :  (0.08, -0.03, 1.00)  gyro(x, y, z) :  (6.23, 2.38, -30.76)  mag(x, y, z) :  (-4.66, 7.79, 25.94)  Speed (m/s): 0.00
time : 3.10 Pitch : -0.30 Roll : 0.93 Yaw : -59.20 dYaw : 11.85 Latitude : 0 Longitude : 0 GPS Time : 11:30:46 accel(x, y, z) :  (0.01, 0.03, 0.89)  gyro(x, y, z) :  (0.73, -17.76, -12.82)  mag(x, y, z) :  (-1.33, 6.21, 28.14)  Speed (m/s): 0.00
time : 3.12 Pitch : 0.94 Roll : 0.27 Yaw : -31.52 dYaw : 27.68 Latitude : 0 Longitude : 0 GPS Time : 11:30:47 accel(x, y, z) :  (-0.03, 0.01, 1.03)  gyro(x, y, z) :  (3.97, 8.91, -8.00)  mag(x, y, z) :  (2.31, 4.90, 25.78)  Speed (m/s): 0.00
time : 3.15 Pitch : 2.21 Roll : -0.38 Yaw : -23.90 dYaw : 7.62 Latitude : 0 Longitude : 0 GPS Time : 11:30:47 accel(x, y, z) :  (-0.06, -0.01, 0.92)  gyro(x, y, z) :  (6.41, 0.12, 0.79)  mag(x, y, z) :  (3.59, 4.74, 26.42)  Speed (m/s): 0.00
time : 3.18 Pitch : 0.60 Roll : -1.46 Yaw : -30.77 dYaw : 6.87 Latitude : 0 Longitude : 0 GPS Time : 11:30:47 accel(x, y, z) :  (-0.02, -0.05, 0.99)  gyro(x, y, z) :  (3.48, 0.49, -0.43)  mag(x, y, z) :  (3.71, 4.88, 26.23)  Speed (m/s): 0.00
time : 3.20 Pitch : -0.64 Roll : -0.91 Yaw : -31.96 dYaw : 1.19 Latitude : -10636662 Longitude : 913388913 GPS Time : 11:30:48 accel(x, y, z) :  (0.02, -0.03, 0.98)  gyro(x, y, z) :  (1.65, -0.61, 6.41)  mag(x, y, z) :  (3.60, 4.08, 26.42)  Speed (m/s): 0.00
time : 3.22 Pitch : 0.55 Roll : -2.20 Yaw : -35.20 dYaw : 3.24 Latitude : -10653198 Longitude : 913415932 GPS Time : 11:30:48 accel(x, y, z) :  (-0.02, -0.07, 0.98)  gyro(x, y, z) :  (5.25, -1.77, 9.95)  mag(x, y, z) :  (2.70, 4.42, 27.55)  Speed (m/s): 0.00
time : 3.25 Pitch : 0.46 Roll : -2.31 Yaw : -43.04 dYaw : 7.84 Latitude : -10674578 Longitude : 913416848 GPS Time : 11:30:49 accel(x, y, z) :  (-0.01, -0.07, 0.98)  gyro(x, y, z) :  (0.98, 1.83, 2.44)  mag(x, y, z) :  (1.05, 4.50, 27.66)  Speed (m/s): 0.00
time : 3.28 Pitch : -0.08 Roll : -3.08 Yaw : -42.81 dYaw : 0.24 Latitude : -11117889 Longitude : 913033120 GPS Time : 11:30:49 accel(x, y, z) :  (0.00, -0.09, 0.97)  gyro(x, y, z) :  (1.28, 1.59, -3.91)  mag(x, y, z) :  (1.81, 4.92, 27.58)  Speed (m/s): 0.00
time : 3.30 Pitch : 0.00 Roll : -1.70 Yaw : -37.55 dYaw : 5.26 Latitude : -11000550 Longitude : 913167456 GPS Time : 11:30:50 accel(x, y, z) :  (0.00, -0.05, 0.99)  gyro(x, y, z) :  (2.20, -0.37, 2.20)  mag(x, y, z) :  (2.59, 4.86, 26.68)  Speed (m/s): 0.00
time : 3.33 Pitch : -0.77 Roll : -2.20 Yaw : -43.92 dYaw : 6.37 Latitude : -10904629 Longitude : 913302733 GPS Time : 11:30:50 accel(x, y, z) :  (0.02, -0.07, 1.00)  gyro(x, y, z) :  (1.22, 1.95, 1.04)  mag(x, y, z) :  (1.94, 4.91, 26.62)  Speed (m/s): 0.00
time : 3.35 Pitch : -1.39 Roll : -1.41 Yaw : -41.99 dYaw : 1.93 Latitude : -10925978 Longitude : 913303628 GPS Time : 11:30:51 accel(x, y, z) :  (0.05, -0.05, 1.03)  gyro(x, y, z) :  (0.37, 1.22, 0.55)  mag(x, y, z) :  (2.81, 5.33, 26.28)  Speed (m/s): 0.00
time : 3.37 Pitch : -1.21 Roll : -1.25 Yaw : -34.37 dYaw : 7.63 Latitude : -11107113 Longitude : 913171816 GPS Time : 11:30:51 accel(x, y, z) :  (0.04, -0.04, 0.97)  gyro(x, y, z) :  (2.20, 2.20, 2.62)  mag(x, y, z) :  (4.03, 4.71, 25.68)  Speed (m/s): 0.00
time : 3.40 Pitch : -2.64 Roll : -2.10 Yaw : -37.84 dYaw : 3.47 Latitude : -11128426 Longitude : 913172688 GPS Time : 11:30:52 accel(x, y, z) :  (0.08, -0.07, 0.99)  gyro(x, y, z) :  (5.19, -0.49, 7.02)  mag(x, y, z) :  (4.70, 4.72, 25.78)  Speed (m/s): 0.00
time : 3.43 Pitch : -1.62 Roll : -2.28 Yaw : -34.00 dYaw : 3.84 Latitude : -11032719 Longitude : 913308105 GPS Time : 11:30:52 accel(x, y, z) :  (0.05, -0.07, 0.96)  gyro(x, y, z) :  (0.79, -2.14, 1.95)  mag(x, y, z) :  (4.58, 4.05, 26.25)  Speed (m/s): 0.00
time : 3.45 Pitch : -2.25 Roll : -3.53 Yaw : -39.15 dYaw : 5.15 Latitude : -11192363 Longitude : 913175304 GPS Time : 11:30:53 accel(x, y, z) :  (0.07, -0.10, 0.94)  gyro(x, y, z) :  (-0.73, -1.65, -1.71)  mag(x, y, z) :  (4.36, 4.06, 26.90)  Speed (m/s): 0.00
time : 3.47 Pitch : -1.22 Roll : -0.63 Yaw : -29.49 dYaw : 9.66 Latitude : -11054233 Longitude : 913351942 GPS Time : 11:30:53 accel(x, y, z) :  (0.04, -0.02, 0.92)  gyro(x, y, z) :  (-9.70, -8.67, -4.15)  mag(x, y, z) :  (4.92, 4.65, 26.82)  Speed (m/s): 0.00
time : 3.50 Pitch : -4.24 Roll : 4.30 Yaw : -2.91 dYaw : 26.58 Latitude : -11256301 Longitude : 913177921 GPS Time : 11:30:54 accel(x, y, z) :  (0.14, 0.14, 1.05)  gyro(x, y, z) :  (5.07, 6.77, -14.65)  mag(x, y, z) :  (8.01, 3.85, 25.22)  Speed (m/s): 0.00
time : 3.53 Pitch : -2.60 Roll : 2.01 Yaw : 0.81 dYaw : 3.72 Latitude : -11690257 Longitude : 912800523 GPS Time : 11:30:54 accel(x, y, z) :  (0.08, 0.07, 1.03)  gyro(x, y, z) :  (10.01, -3.54, -16.54)  mag(x, y, z) :  (10.34, 1.43, 25.92)  Speed (m/s): 0.00
time : 3.55 Pitch : -1.65 Roll : 0.87 Yaw : 10.78 dYaw : 9.97 Latitude : -11734482 Longitude : 912779022 GPS Time : 11:30:55 accel(x, y, z) :  (0.05, 0.03, 1.06)  gyro(x, y, z) :  (-0.85, 6.35, -2.50)  mag(x, y, z) :  (10.72, -2.50, 27.80)  Speed (m/s): 0.00
time : 3.58 Pitch : -0.61 Roll : -1.85 Yaw : 6.35 dYaw : 4.43 Latitude : -10161139 Longitude : 914347994 GPS Time : 11:30:55 accel(x, y, z) :  (0.02, -0.06, 1.04)  gyro(x, y, z) :  (2.69, 3.66, -7.57)  mag(x, y, z) :  (11.18, -3.77, 27.78)  Speed (m/s): 0.00
time : 3.60 Pitch : -1.10 Roll : -2.04 Yaw : 8.28 dYaw : 1.93 Latitude : -10328650 Longitude : 914207499 GPS Time : 11:30:56 accel(x, y, z) :  (0.04, -0.07, 1.08)  gyro(x, y, z) :  (1.40, 5.55, -4.03)  mag(x, y, z) :  (13.10, -4.98, 27.14)  Speed (m/s): 0.00
time : 3.62 Pitch : -4.89 Roll : -0.45 Yaw : 13.54 dYaw : 5.26 Latitude : -12154355 Longitude : 912478164 GPS Time : 11:30:56 accel(x, y, z) :  (0.15, -0.01, 0.97)  gyro(x, y, z) :  (2.87, -7.75, 17.27)  mag(x, y, z) :  (12.43, -4.04, 27.47)  Speed (m/s): 0.00
time : 3.65 Pitch : -3.30 Roll : -4.53 Yaw : -15.04 dYaw : 28.57 Latitude : -12175480 Longitude : 912478913 GPS Time : 11:30:57 accel(x, y, z) :  (0.10, -0.13, 0.94)  gyro(x, y, z) :  (-0.24, 6.90, 5.80)  mag(x, y, z) :  (9.03, -0.84, 27.89)  Speed (m/s): 0.00
time : 3.68 Pitch : -8.15 Roll : 3.67 Yaw : 30.77 dYaw : 45.80 Latitude : -11717437 Longitude : 912967024 GPS Time : 11:30:57 accel(x, y, z) :  (0.25, 0.11, 0.96)  gyro(x, y, z) :  (-9.83, -18.98, -43.58)  mag(x, y, z) :  (10.96, -2.29, 27.49)  Speed (m/s): 0.00
time : 3.70 Pitch : 0.25 Roll : -0.43 Yaw : 16.22 dYaw : 14.54 Latitude : -11512052 Longitude : 913188387 GPS Time : 11:30:58 accel(x, y, z) :  (-0.01, -0.01, 1.03)  gyro(x, y, z) :  (-5.13, 4.46, -13.00)  mag(x, y, z) :  (11.22, -6.80, 29.85)  Speed (m/s): 0.00
time : 3.72 Pitch : 0.28 Roll : -0.91 Yaw : 17.75 dYaw : 1.53 Latitude : -10952768 Longitude : 913776297 GPS Time : 11:30:58 accel(x, y, z) :  (-0.01, -0.03, 0.96)  gyro(x, y, z) :  (3.54, 3.60, -6.41)  mag(x, y, z) :  (12.95, -9.01, 27.21)  Speed (m/s): 0.00
time : 3.75 Pitch : -0.30 Roll : -0.49 Yaw : 20.01 dYaw : 2.26 Latitude : -11395979 Longitude : 913366386 GPS Time : 11:30:59 accel(x, y, z) :  (0.01, -0.01, 0.98)  gyro(x, y, z) :  (2.44, 2.14, -0.49)  mag(x, y, z) :  (13.38, -9.95, 26.53)  Speed (m/s): 0.00
time : 3.78 Pitch : -1.20 Roll : -0.65 Yaw : 20.90 dYaw : 0.89 Latitude : -11267775 Longitude : 913534860 GPS Time : 11:30:59 accel(x, y, z) :  (0.04, -0.02, 0.99)  gyro(x, y, z) :  (1.46, 2.69, -0.12)  mag(x, y, z) :  (12.93, -9.72, 27.50)  Speed (m/s): 0.00
time : 3.80 Pitch : 0.98 Roll : -1.09 Yaw : 19.69 dYaw : 1.22 Latitude : -11460056 Longitude : 913369095 GPS Time : 11:30:59 accel(x, y, z) :  (-0.03, -0.03, 0.95)  gyro(x, y, z) :  (-0.61, -4.21, 1.22)  mag(x, y, z) :  (13.24, -10.86, 25.54)  Speed (m/s): 0.00
time : 3.83 Pitch : 1.15 Roll : -1.08 Yaw : 19.88 dYaw : 0.20 Latitude : -11270119 Longitude : 913598059 GPS Time : 11:31:0 accel(x, y, z) :  (-0.03, -0.03, 0.95)  gyro(x, y, z) :  (2.32, -3.54, -1.04)  mag(x, y, z) :  (13.07, -11.12, 28.05)  Speed (m/s): 0.00
time : 3.85 Pitch : 0.93 Roll : -1.38 Yaw : 20.17 dYaw : 0.29 Latitude : -11265768 Longitude : 913624173 GPS Time : 11:31:0 accel(x, y, z) :  (-0.03, -0.04, 0.96)  gyro(x, y, z) :  (2.99, -0.12, 0.55)  mag(x, y, z) :  (13.18, -11.44, 26.68)  Speed (m/s): 0.00
time : 3.87 Pitch : 0.53 Roll : -1.73 Yaw : 19.57 dYaw : 0.61 Latitude : -10745637 Longitude : 914176438 GPS Time : 11:31:1 accel(x, y, z) :  (-0.02, -0.05, 0.95)  gyro(x, y, z) :  (2.62, 0.98, -1.22)  mag(x, y, z) :  (12.93, -10.95, 27.29)  Speed (m/s): 0.00
time : 3.90 Pitch : -0.26 Roll : -1.15 Yaw : 22.26 dYaw : 2.70 Latitude : -10470732 Longitude : 914467429 GPS Time : 11:31:1 accel(x, y, z) :  (0.01, -0.04, 0.97)  gyro(x, y, z) :  (1.71, -0.31, 2.26)  mag(x, y, z) :  (13.15, -11.87, 27.21)  Speed (m/s): 0.00
time : 3.93 Pitch : -0.23 Roll : -1.37 Yaw : 21.82 dYaw : 0.44 Latitude : -8494338 Longitude : 916446339 GPS Time : 11:31:2 accel(x, y, z) :  (0.01, -0.04, 1.02)  gyro(x, y, z) :  (3.42, 2.87, -1.65)  mag(x, y, z) :  (12.89, -11.50, 25.63)  Speed (m/s): 0.00
time : 3.95 Pitch : -1.76 Roll : -1.66 Yaw : 23.66 dYaw : 1.84 Latitude : -8721155 Longitude : 916247411 GPS Time : 11:31:2 accel(x, y, z) :  (0.05, -0.05, 0.98)  gyro(x, y, z) :  (-1.59, -4.39, 4.46)  mag(x, y, z) :  (14.18, -13.04, 25.85)  Speed (m/s): 0.00
time : 3.98 Pitch : -1.05 Roll : 1.34 Yaw : 26.65 dYaw : 2.99 Latitude : -10798199 Longitude : 914258033 GPS Time : 11:31:3 accel(x, y, z) :  (0.03, 0.04, 0.94)  gyro(x, y, z) :  (4.15, 6.23, -14.10)  mag(x, y, z) :  (14.15, -13.82, 24.17)  Speed (m/s): 0.00
time : 4.00 Pitch : -1.05 Roll : 0.72 Yaw : 25.60 dYaw : 1.05 Latitude : -10896640 Longitude : 914183735 GPS Time : 11:31:3 accel(x, y, z) :  (0.03, 0.02, 0.95)  gyro(x, y, z) :  (-3.66, 1.71, 2.99)  mag(x, y, z) :  (13.62, -12.82, 23.54)  Speed (m/s): 0.00
time : 4.03 Pitch : -0.62 Roll : -0.05 Yaw : 22.76 dYaw : 2.85 Latitude : -9722053 Longitude : 915380815 GPS Time : 11:31:4 accel(x, y, z) :  (0.02, -0.00, 1.02)  gyro(x, y, z) :  (-2.08, 8.91, 1.65)  mag(x, y, z) :  (11.65, -9.72, 25.31)  Speed (m/s): 0.00
time : 4.05 Pitch : 2.40 Roll : 0.48 Yaw : 19.30 dYaw : 3.45 Latitude : -10371465 Longitude : 914766007 GPS Time : 11:31:4 accel(x, y, z) :  (-0.07, 0.01, 0.98)  gyro(x, y, z) :  (3.91, 7.87, -2.62)  mag(x, y, z) :  (12.05, -9.24, 24.54)  Speed (m/s): 0.00
time : 4.08 Pitch : 1.06 Roll : -0.32 Yaw : 21.49 dYaw : 2.19 Latitude : -10732385 Longitude : 914456340 GPS Time : 11:31:5 accel(x, y, z) :  (-0.03, -0.01, 0.94)  gyro(x, y, z) :  (3.11, -1.71, 3.17)  mag(x, y, z) :  (12.19, -10.69, 25.34)  Speed (m/s): 0.00
time : 4.10 Pitch : 1.14 Roll : 0.80 Yaw : 19.55 dYaw : 1.95 Latitude : -10693573 Longitude : 914516859 GPS Time : 11:31:5 accel(x, y, z) :  (-0.04, 0.02, 0.99)  gyro(x, y, z) :  (17.27, -3.05, -1.28)  mag(x, y, z) :  (12.35, -8.70, 26.55)  Speed (m/s): 0.00
time : 4.12 Pitch : 3.58 Roll : 2.09 Yaw : 19.63 dYaw : 0.08 Latitude : -10930102 Longitude : 914328952 GPS Time : 11:31:6 accel(x, y, z) :  (-0.11, 0.06, 0.97)  gyro(x, y, z) :  (4.64, -0.37, 4.64)  mag(x, y, z) :  (11.44, -8.40, 26.60)  Speed (m/s): 0.00
time : 4.15 Pitch : 2.52 Roll : 1.88 Yaw : 21.10 dYaw : 1.47 Latitude : -11136092 Longitude : 914148520 GPS Time : 11:31:6 accel(x, y, z) :  (-0.08, 0.06, 0.97)  gyro(x, y, z) :  (6.10, 0.61, 0.00)  mag(x, y, z) :  (11.12, -8.70, 26.42)  Speed (m/s): 0.00
time : 4.17 Pitch : 2.39 Roll : 2.80 Yaw : 21.47 dYaw : 0.37 Latitude : -11220556 Longitude : 914109857 GPS Time : 11:31:7 accel(x, y, z) :  (-0.07, 0.09, 0.98)  gyro(x, y, z) :  (6.04, -0.98, -1.71)  mag(x, y, z) :  (11.27, -8.23, 26.57)  Speed (m/s): 0.00
time : 4.20 Pitch : 2.16 Roll : 2.46 Yaw : 20.98 dYaw : 0.49 Latitude : -11242106 Longitude : 914110885 GPS Time : 11:31:7 accel(x, y, z) :  (-0.07, 0.08, 0.98)  gyro(x, y, z) :  (1.22, 2.26, 0.92)  mag(x, y, z) :  (11.77, -8.45, 25.63)  Speed (m/s): 0.00
time : 4.23 Pitch : 2.47 Roll : 2.11 Yaw : 20.56 dYaw : 0.42 Latitude : -11419849 Longitude : 913980111 GPS Time : 11:31:8 accel(x, y, z) :  (-0.07, 0.06, 0.96)  gyro(x, y, z) :  (3.30, -0.55, 0.73)  mag(x, y, z) :  (11.41, -8.35, 27.09)  Speed (m/s): 0.00
time : 4.25 Pitch : 1.64 Roll : 2.11 Yaw : 20.18 dYaw : 0.38 Latitude : -11441364 Longitude : 913981116 GPS Time : 11:31:8 accel(x, y, z) :  (-0.05, 0.07, 1.00)  gyro(x, y, z) :  (1.16, 0.31, -0.06)  mag(x, y, z) :  (12.02, -8.07, 26.70)  Speed (m/s): 0.00
time : 4.28 Pitch : 2.19 Roll : 2.31 Yaw : 21.10 dYaw : 0.92 Latitude : -11484392 Longitude : 913983126 GPS Time : 11:31:9 accel(x, y, z) :  (-0.07, 0.07, 0.98)  gyro(x, y, z) :  (2.81, -1.59, 1.34)  mag(x, y, z) :  (11.39, -8.35, 26.88)  Speed (m/s): 0.00
time : 4.30 Pitch : 2.78 Roll : 2.58 Yaw : 21.91 dYaw : 0.81 Latitude : -11371401 Longitude : 914117052 GPS Time : 11:31:9 accel(x, y, z) :  (-0.08, 0.08, 0.95)  gyro(x, y, z) :  (0.49, 2.50, 0.37)  mag(x, y, z) :  (11.41, -9.08, 26.07)  Speed (m/s): 0.00
time : 4.33 Pitch : 2.83 Roll : 0.94 Yaw : 20.81 dYaw : 1.10 Latitude : -11581828 Longitude : 913953606 GPS Time : 11:31:10 accel(x, y, z) :  (-0.09, 0.03, 1.00)  gyro(x, y, z) :  (4.70, 0.55, 5.19)  mag(x, y, z) :  (11.12, -9.48, 26.40)  Speed (m/s): 0.00
time : 4.35 Pitch : 2.77 Roll : 1.94 Yaw : 20.83 dYaw : 0.02 Latitude : -11763647 Longitude : 913795970 GPS Time : 11:31:10 accel(x, y, z) :  (-0.09, 0.06, 0.99)  gyro(x, y, z) :  (7.75, -4.15, 3.11)  mag(x, y, z) :  (10.90, -8.46, 26.68)  Speed (m/s): 0.00
time : 4.37 Pitch : 3.83 Roll : 3.50 Yaw : 19.98 dYaw : 0.85 Latitude : -11753911 Longitude : 913850071 GPS Time : 11:31:11 accel(x, y, z) :  (-0.12, 0.11, 0.98)  gyro(x, y, z) :  (-1.40, -1.95, 3.72)  mag(x, y, z) :  (10.67, -7.02, 27.71)  Speed (m/s): 0.00
time : 4.40 Pitch : 4.59 Roll : 4.40 Yaw : 21.50 dYaw : 1.52 Latitude : -11745303 Longitude : 913880862 GPS Time : 11:31:11 accel(x, y, z) :  (-0.14, 0.13, 0.95)  gyro(x, y, z) :  (-10.86, -3.85, 4.70)  mag(x, y, z) :  (10.69, -7.78, 27.69)  Speed (m/s): 0.00
time : 4.42 Pitch : 2.27 Roll : 2.28 Yaw : 22.06 dYaw : 0.56 Latitude : -11559282 Longitude : 914109919 GPS Time : 11:31:12 accel(x, y, z) :  (-0.06, 0.06, 0.90)  gyro(x, y, z) :  (-6.16, 7.14, -5.25)  mag(x, y, z) :  (10.94, -8.69, 28.11)  Speed (m/s): 0.00
time : 4.45 Pitch : 2.60 Roll : 0.30 Yaw : 19.68 dYaw : 2.37 Latitude : -11580827 Longitude : 914110944 GPS Time : 11:31:12 accel(x, y, z) :  (-0.07, 0.01, 0.91)  gyro(x, y, z) :  (-5.92, 3.60, 2.56)  mag(x, y, z) :  (10.79, -9.00, 27.86)  Speed (m/s): 0.00
time : 4.48 Pitch : 5.09 Roll : -0.72 Yaw : 16.48 dYaw : 3.20 Latitude : -12005890 Longitude : 913733708 GPS Time : 11:31:13 accel(x, y, z) :  (-0.16, -0.02, 0.99)  gyro(x, y, z) :  (-0.67, -4.21, 1.40)  mag(x, y, z) :  (11.02, -9.36, 27.75)  Speed (m/s): 0.00
time : 4.50 Pitch : 1.07 Roll : 1.01 Yaw : 24.16 dYaw : 7.67 Latitude : -12027336 Longitude : 913734668 GPS Time : 11:31:13 accel(x, y, z) :  (-0.03, 0.03, 0.97)  gyro(x, y, z) :  (4.03, -2.38, -3.05)  mag(x, y, z) :  (10.38, -9.84, 27.19)  Speed (m/s): 0.00
time : 4.53 Pitch : 1.76 Roll : -1.74 Yaw : 23.09 dYaw : 1.07 Latitude : -11673089 Longitude : 914131446 GPS Time : 11:31:14 accel(x, y, z) :  (-0.06, -0.06, 1.01)  gyro(x, y, z) :  (12.33, -2.99, -13.49)  mag(x, y, z) :  (10.89, -12.49, 26.99)  Speed (m/s): 0.00
time : 4.55 Pitch : 2.69 Roll : -0.80 Yaw : 27.87 dYaw : 4.79 Latitude : -11694638 Longitude : 914132475 GPS Time : 11:31:14 accel(x, y, z) :  (-0.09, -0.03, 1.01)  gyro(x, y, z) :  (-1.46, 1.83, -8.91)  mag(x, y, z) :  (10.45, -15.95, 27.10)  Speed (m/s): 0.00
time : 4.58 Pitch : 0.37 Roll : -0.58 Yaw : 30.73 dYaw : 2.86 Latitude : -11696651 Longitude : 914175433 GPS Time : 11:31:15 accel(x, y, z) :  (-0.01, -0.02, 1.07)  gyro(x, y, z) :  (4.46, 4.21, 2.44)  mag(x, y, z) :  (10.56, -16.21, 27.06)  Speed (m/s): 0.00
time : 4.60 Pitch : 5.93 Roll : -3.48 Yaw : 22.69 dYaw : 8.04 Latitude : -12033117 Longitude : 913862828 GPS Time : 11:31:15 accel(x, y, z) :  (-0.15, -0.09, 0.78)  gyro(x, y, z) :  (-0.43, 19.53, -12.94)  mag(x, y, z) :  (10.97, -16.97, 27.05)  Speed (m/s): 0.00
time : 4.62 Pitch : 1.04 Roll : 1.49 Yaw : 30.65 dYaw : 7.97 Latitude : -12222462 Longitude : 913718859 GPS Time : 11:31:16 accel(x, y, z) :  (-0.03, 0.05, 1.02)  gyro(x, y, z) :  (-0.55, -10.56, 20.87)  mag(x, y, z) :  (11.15, -15.99, 27.36)  Speed (m/s): 0.00
time : 4.65 Pitch : 2.88 Roll : -0.75 Yaw : 25.33 dYaw : 5.32 Latitude : -12067581 Longitude : 913895659 GPS Time : 11:31:16 accel(x, y, z) :  (-0.09, -0.02, 0.94)  gyro(x, y, z) :  (2.93, 2.99, -7.93)  mag(x, y, z) :  (10.97, -14.29, 26.73)  Speed (m/s): 0.00
time : 4.67 Pitch : -2.30 Roll : 3.14 Yaw : 33.77 dYaw : 8.44 Latitude : -11964973 Longitude : 914042942 GPS Time : 11:31:17 accel(x, y, z) :  (0.07, 0.10, 1.02)  gyro(x, y, z) :  (3.72, -6.29, 4.39)  mag(x, y, z) :  (12.13, -15.70, 27.42)  Speed (m/s): 0.00
time : 4.70 Pitch : 3.02 Roll : -2.52 Yaw : 24.62 dYaw : 9.15 Latitude : -12022243 Longitude : 914008258 GPS Time : 11:31:17 accel(x, y, z) :  (-0.08, -0.07, 0.88)  gyro(x, y, z) :  (2.50, 0.12, 2.87)  mag(x, y, z) :  (12.28, -16.63, 26.31)  Speed (m/s): 0.00
time : 4.73 Pitch : 0.27 Roll : 0.67 Yaw : 30.98 dYaw : 6.36 Latitude : -12697863 Longitude : 913378002 GPS Time : 11:31:18 accel(x, y, z) :  (-0.01, 0.02, 1.00)  gyro(x, y, z) :  (3.72, -0.73, -2.81)  mag(x, y, z) :  (11.62, -16.86, 25.93)  Speed (m/s): 0.00
time : 4.75 Pitch : 0.02 Roll : 2.12 Yaw : 32.02 dYaw : 1.03 Latitude : -12719211 Longitude : 913378899 GPS Time : 11:31:18 accel(x, y, z) :  (-0.00, 0.07, 1.06)  gyro(x, y, z) :  (-6.84, -19.04, 5.74)  mag(x, y, z) :  (11.79, -16.85, 27.29)  Speed (m/s): 0.00
time : 4.78 Pitch : 5.57 Roll : 0.87 Yaw : 26.60 dYaw : 5.41 Latitude : -12756378 Longitude : 913386226 GPS Time : 11:31:19 accel(x, y, z) :  (-0.16, 0.02, 0.90)  gyro(x, y, z) :  (-9.89, -10.93, 0.43)  mag(x, y, z) :  (10.96, -16.24, 26.46)  Speed (m/s): 0.00
time : 4.80 Pitch : 2.56 Roll : 0.39 Yaw : 26.12 dYaw : 0.49 Latitude : -12777727 Longitude : 913387124 GPS Time : 11:31:19 accel(x, y, z) :  (-0.08, 0.01, 1.00)  gyro(x, y, z) :  (5.74, -0.43, 2.14)  mag(x, y, z) :  (11.00, -13.82, 27.92)  Speed (m/s): 0.00
time : 4.83 Pitch : 3.08 Roll : 1.49 Yaw : 28.32 dYaw : 2.20 Latitude : -12814431 Longitude : 913394927 GPS Time : 11:31:20 accel(x, y, z) :  (-0.10, 0.05, 0.99)  gyro(x, y, z) :  (1.77, 0.12, 3.54)  mag(x, y, z) :  (10.24, -14.45, 26.81)  Speed (m/s): 0.00
time : 4.85 Pitch : 1.71 Roll : 2.37 Yaw : 29.39 dYaw : 1.07 Latitude : -12835782 Longitude : 913395826 GPS Time : 11:31:20 accel(x, y, z) :  (-0.05, 0.07, 0.99)  gyro(x, y, z) :  (2.14, 0.00, 0.12)  mag(x, y, z) :  (10.84, -14.18, 26.27)  Speed (m/s): 0.00
time : 4.87 Pitch : 4.17 Roll : 0.94 Yaw : 26.66 dYaw : 2.73 Latitude : -13025226 Longitude : 913250376 GPS Time : 11:31:21 accel(x, y, z) :  (-0.12, 0.03, 0.92)  gyro(x, y, z) :  (1.59, -1.53, 3.66)  mag(x, y, z) :  (10.57, -14.51, 25.40)  Speed (m/s): 0.00
time : 4.90 Pitch : 3.08 Roll : 1.00 Yaw : 26.31 dYaw : 0.35 Latitude : -13206887 Longitude : 913090274 GPS Time : 11:31:21 accel(x, y, z) :  (-0.10, 0.03, 0.98)  gyro(x, y, z) :  (1.89, -6.71, 2.62)  mag(x, y, z) :  (10.71, -13.53, 27.12)  Speed (m/s): 0.00
time : 4.93 Pitch : 4.52 Roll : 0.62 Yaw : 24.62 dYaw : 1.69 Latitude : -13089162 Longitude : 913252997 GPS Time : 11:31:22 accel(x, y, z) :  (-0.13, 0.02, 0.91)  gyro(x, y, z) :  (3.60, -0.73, -1.59)  mag(x, y, z) :  (11.22, -14.06, 27.45)  Speed (m/s): 0.00
time : 4.95 Pitch : 3.40 Roll : 1.47 Yaw : 25.52 dYaw : 0.90 Latitude : -13110474 Longitude : 913253871 GPS Time : 11:31:22 accel(x, y, z) :  (-0.10, 0.04, 0.90)  gyro(x, y, z) :  (2.44, -1.34, 0.98)  mag(x, y, z) :  (11.77, -13.68, 25.95)  Speed (m/s): 0.00
time : 4.98 Pitch : 2.90 Roll : 0.06 Yaw : 25.66 dYaw : 0.15 Latitude : -12825193 Longitude : 913585512 GPS Time : 11:31:23 accel(x, y, z) :  (-0.09, 0.00, 0.97)  gyro(x, y, z) :  (3.17, -1.40, -1.59)  mag(x, y, z) :  (11.33, -14.09, 25.09)  Speed (m/s): 0.00
time : 5.00 Pitch : 2.37 Roll : 0.88 Yaw : 27.84 dYaw : 2.17 Latitude : -12846591 Longitude : 913586442 GPS Time : 11:31:23 accel(x, y, z) :  (-0.07, 0.03, 0.95)  gyro(x, y, z) :  (1.77, -0.06, 1.77)  mag(x, y, z) :  (11.43, -15.25, 26.93)  Speed (m/s): 0.00
time : 5.03 Pitch : 2.09 Roll : 0.48 Yaw : 27.47 dYaw : 0.37 Latitude : -12713576 Longitude : 913765406 GPS Time : 11:31:24 accel(x, y, z) :  (-0.06, 0.01, 0.95)  gyro(x, y, z) :  (3.48, 0.24, 1.71)  mag(x, y, z) :  (11.40, -14.87, 25.83)  Speed (m/s): 0.00
time : 5.05 Pitch : 1.07 Roll : 1.23 Yaw : 29.15 dYaw : 1.68 Latitude : -12758432 Longitude : 913742775 GPS Time : 11:31:24 accel(x, y, z) :  (-0.03, 0.04, 1.02)  gyro(x, y, z) :  (2.62, -0.18, -0.43)  mag(x, y, z) :  (11.23, -14.73, 25.60)  Speed (m/s): 0.00
time : 5.08 Pitch : 1.83 Roll : 0.41 Yaw : 27.68 dYaw : 1.47 Latitude : -12421572 Longitude : 914127703 GPS Time : 11:31:25 accel(x, y, z) :  (-0.06, 0.01, 0.98)  gyro(x, y, z) :  (2.62, 4.52, -0.92)  mag(x, y, z) :  (11.30, -14.76, 25.49)  Speed (m/s): 0.00
time : 5.10 Pitch : 1.04 Roll : 0.83 Yaw : 28.76 dYaw : 1.08 Latitude : -12752416 Longitude : 913816617 GPS Time : 11:31:25 accel(x, y, z) :  (-0.03, 0.03, 1.02)  gyro(x, y, z) :  (2.20, 1.22, -0.06)  mag(x, y, z) :  (11.13, -14.51, 25.76)  Speed (m/s): 0.00
time : 5.12 Pitch : 1.94 Roll : 0.38 Yaw : 25.77 dYaw : 2.99 Latitude : -12924313 Longitude : 913688286 GPS Time : 11:31:26 accel(x, y, z) :  (-0.06, 0.01, 1.00)  gyro(x, y, z) :  (1.89, 1.22, -0.31)  mag(x, y, z) :  (11.90, -13.81, 25.76)  Speed (m/s): 0.00
time : 5.15 Pitch : 1.65 Roll : 0.32 Yaw : 26.83 dYaw : 1.06 Latitude : -12816788 Longitude : 913819524 GPS Time : 11:31:26 accel(x, y, z) :  (-0.05, 0.01, 0.97)  gyro(x, y, z) :  (2.01, -0.55, 2.14)  mag(x, y, z) :  (11.65, -14.32, 26.44)  Speed (m/s): 0.00
time : 5.18 Pitch : 2.03 Roll : 0.66 Yaw : 27.06 dYaw : 0.23 Latitude : -13005064 Longitude : 913674460 GPS Time : 11:31:27 accel(x, y, z) :  (-0.06, 0.02, 0.96)  gyro(x, y, z) :  (2.08, -0.73, 0.37)  mag(x, y, z) :  (11.56, -14.50, 26.64)  Speed (m/s): 0.00
time : 5.20 Pitch : 1.71 Roll : 0.70 Yaw : 26.46 dYaw : 0.60 Latitude : -13155658 Longitude : 913544710 GPS Time : 11:31:27 accel(x, y, z) :  (-0.05, 0.02, 0.96)  gyro(x, y, z) :  (2.81, 0.18, 0.37)  mag(x, y, z) :  (11.89, -13.94, 25.60)  Speed (m/s): 0.00
time : 5.23 Pitch : 1.73 Roll : 0.67 Yaw : 26.66 dYaw : 0.20 Latitude : -13198427 Longitude : 913546554 GPS Time : 11:31:28 accel(x, y, z) :  (-0.05, 0.02, 1.00)  gyro(x, y, z) :  (2.26, -0.43, -0.18)  mag(x, y, z) :  (12.18, -14.53, 26.71)  Speed (m/s): 0.00
time : 5.25 Pitch : 0.90 Roll : 1.22 Yaw : 28.61 dYaw : 1.95 Latitude : -13219812 Longitude : 913547476 GPS Time : 11:31:28 accel(x, y, z) :  (-0.03, 0.04, 0.97)  gyro(x, y, z) :  (0.92, 2.99, -0.85)  mag(x, y, z) :  (11.58, -14.48, 26.29)  Speed (m/s): 0.00
time : 5.28 Pitch : 1.88 Roll : -0.08 Yaw : 28.46 dYaw : 0.15 Latitude : -11733166 Longitude : 915099955 GPS Time : 11:31:29 accel(x, y, z) :  (-0.06, -0.00, 1.00)  gyro(x, y, z) :  (7.75, -2.69, -2.56)  mag(x, y, z) :  (11.13, -15.81, 25.87)  Speed (m/s): 0.00
time : 5.30 Pitch : 2.31 Roll : -1.66 Yaw : 30.55 dYaw : 2.09 Latitude : 376271822 Longitude : 1270732336 GPS Time : 11:31:29 accel(x, y, z) :  (-0.07, -0.05, 1.00)  gyro(x, y, z) :  (-0.24, -4.46, -19.41)  mag(x, y, z) :  (10.56, -19.25, 26.32)  Speed (m/s): 217.98
time : 5.33 Pitch : 3.21 Roll : -1.58 Yaw : 31.76 dYaw : 1.21 Latitude : 376271822 Longitude : 1270732336 GPS Time : 11:31:30 accel(x, y, z) :  (-0.09, -0.05, 0.93)  gyro(x, y, z) :  (3.17, -2.62, 24.29)  mag(x, y, z) :  (9.01, -19.54, 26.65)  Speed (m/s): 217.98
time : 5.35 Pitch : 3.51 Roll : -2.86 Yaw : 26.17 dYaw : 5.60 Latitude : 376271822 Longitude : 1270732336 GPS Time : 11:31:30 accel(x, y, z) :  (-0.11, -0.09, 1.00)  gyro(x, y, z) :  (6.35, 6.04, -5.92)  mag(x, y, z) :  (10.36, -17.18, 28.10)  Speed (m/s): 217.98
time : 5.37 Pitch : 3.50 Roll : -1.80 Yaw : 29.98 dYaw : 3.81 Latitude : 376276037 Longitude : 1270743747 GPS Time : 11:31:31 accel(x, y, z) :  (-0.11, -0.05, 0.96)  gyro(x, y, z) :  (10.68, 2.14, -5.37)  mag(x, y, z) :  (9.89, -19.35, 27.26)  Speed (m/s): 193.21
time : 5.40 Pitch : 0.96 Roll : -3.20 Yaw : 31.30 dYaw : 1.33 Latitude : 376276037 Longitude : 1270743747 GPS Time : 11:31:31 accel(x, y, z) :  (-0.03, -0.10, 0.98)  gyro(x, y, z) :  (3.11, -1.04, 13.92)  mag(x, y, z) :  (10.67, -20.23, 27.59)  Speed (m/s): 193.21
time : 5.43 Pitch : 1.33 Roll : 2.61 Yaw : 33.92 dYaw : 2.62 Latitude : 376276037 Longitude : 1270743747 GPS Time : 11:31:31 accel(x, y, z) :  (-0.04, 0.08, 0.97)  gyro(x, y, z) :  (-6.53, 2.14, -7.39)  mag(x, y, z) :  (11.10, -19.82, 25.59)  Speed (m/s): 193.21
time : 5.45 Pitch : 2.12 Roll : -0.44 Yaw : 29.87 dYaw : 4.05 Latitude : 376278082 Longitude : 1270751039 GPS Time : 11:31:32 accel(x, y, z) :  (-0.06, -0.01, 0.95)  gyro(x, y, z) :  (3.72, 2.81, -1.16)  mag(x, y, z) :  (11.43, -18.21, 25.11)  Speed (m/s): 82.57
time : 5.48 Pitch : 2.51 Roll : -2.37 Yaw : 24.52 dYaw : 5.36 Latitude : 376266948 Longitude : 1270717910 GPS Time : 11:31:32 accel(x, y, z) :  (-0.08, -0.07, 0.98)  gyro(x, y, z) :  (-0.92, -1.59, 18.19)  mag(x, y, z) :  (12.41, -15.70, 23.65)  Speed (m/s): 38.83
time : 5.50 Pitch : -0.76 Roll : 0.26 Yaw : 28.30 dYaw : 3.78 Latitude : 376262853 Longitude : 1270705001 GPS Time : 11:31:32 accel(x, y, z) :  (0.03, 0.01, 1.11)  gyro(x, y, z) :  (7.14, 8.79, 27.10)  mag(x, y, z) :  (12.19, -14.11, 24.06)  Speed (m/s): 162.36
time : 5.53 Pitch : 0.89 Roll : -1.70 Yaw : 22.60 dYaw : 5.69 Latitude : 376258760 Longitude : 1270693190 GPS Time : 11:31:33 accel(x, y, z) :  (-0.03, -0.05, 0.96)  gyro(x, y, z) :  (0.73, -0.61, -6.77)  mag(x, y, z) :  (12.46, -12.71, 25.39)  Speed (m/s): 179.50
time : 5.55 Pitch : 1.15 Roll : 0.98 Yaw : 26.25 dYaw : 3.64 Latitude : 376265605 Longitude : 1270715040 GPS Time : 11:31:33 accel(x, y, z) :  (-0.03, 0.03, 0.93)  gyro(x, y, z) :  (6.16, -6.23, -7.02)  mag(x, y, z) :  (12.95, -14.20, 25.10)  Speed (m/s): 17.79
time : 5.58 Pitch : -0.52 Roll : 1.29 Yaw : 28.44 dYaw : 2.19 Latitude : 376258464 Longitude : 1270693486 GPS Time : 11:31:33 accel(x, y, z) :  (0.02, 0.04, 0.95)  gyro(x, y, z) :  (4.39, -4.94, 5.49)  mag(x, y, z) :  (13.16, -14.82, 25.78)  Speed (m/s): 60.12
time : 5.60 Pitch : -2.09 Roll : 0.39 Yaw : 29.16 dYaw : 0.72 Latitude : 376259013 Longitude : 1270694591 GPS Time : 11:31:34 accel(x, y, z) :  (0.07, 0.01, 1.02)  gyro(x, y, z) :  (0.31, 1.16, 1.65)  mag(x, y, z) :  (12.76, -14.10, 25.57)  Speed (m/s): 227.91
time : 5.62 Pitch : 0.94 Roll : -1.19 Yaw : 26.80 dYaw : 2.36 Latitude : 376259013 Longitude : 1270694591 GPS Time : 11:31:34 accel(x, y, z) :  (-0.03, -0.04, 0.95)  gyro(x, y, z) :  (5.86, -7.26, -3.48)  mag(x, y, z) :  (12.02, -15.31, 25.81)  Speed (m/s): 227.91
time : 5.65 Pitch : 3.99 Roll : -2.88 Yaw : 21.52 dYaw : 5.29 Latitude : 376260215 Longitude : 1270698917 GPS Time : 11:31:34 accel(x, y, z) :  (-0.12, -0.09, 0.94)  gyro(x, y, z) :  (7.87, -6.71, 5.92)  mag(x, y, z) :  (11.94, -14.70, 26.29)  Speed (m/s): 350.95
time : 5.68 Pitch : 0.88 Roll : -0.93 Yaw : 25.47 dYaw : 3.96 Latitude : 376260215 Longitude : 1270698917 GPS Time : 11:31:35 accel(x, y, z) :  (-0.03, -0.03, 0.97)  gyro(x, y, z) :  (-0.98, -0.37, 0.79)  mag(x, y, z) :  (13.23, -15.04, 24.17)  Speed (m/s): 350.95
time : 5.70 Pitch : 0.20 Roll : -1.80 Yaw : 25.60 dYaw : 0.12 Latitude : 376260215 Longitude : 1270698917 GPS Time : 11:31:35 accel(x, y, z) :  (-0.01, -0.06, 1.00)  gyro(x, y, z) :  (2.20, 2.26, 1.71)  mag(x, y, z) :  (13.29, -15.38, 24.63)  Speed (m/s): 350.95
time : 5.73 Pitch : 0.01 Roll : -1.71 Yaw : 27.28 dYaw : 1.68 Latitude : 376260215 Longitude : 1270698917 GPS Time : 11:31:35 accel(x, y, z) :  (-0.00, -0.05, 0.98)  gyro(x, y, z) :  (1.77, 0.85, 1.22)  mag(x, y, z) :  (13.11, -16.53, 25.24)  Speed (m/s): 350.95
time : 5.75 Pitch : 0.40 Roll : -2.56 Yaw : 24.86 dYaw : 2.42 Latitude : 376260215 Longitude : 1270698917 GPS Time : 11:31:36 accel(x, y, z) :  (-0.01, -0.08, 0.97)  gyro(x, y, z) :  (2.32, 0.31, 1.22)  mag(x, y, z) :  (13.40, -15.69, 25.16)  Speed (m/s): 350.95
time : 5.78 Pitch : -0.59 Roll : -2.10 Yaw : 25.89 dYaw : 1.03 Latitude : 376260215 Longitude : 1270698917 GPS Time : 11:31:36 accel(x, y, z) :  (0.02, -0.07, 1.00)  gyro(x, y, z) :  (0.61, 0.24, 2.14)  mag(x, y, z) :  (13.65, -15.60, 24.90)  Speed (m/s): 350.95
time : 5.80 Pitch : -1.16 Roll : -0.65 Yaw : 27.10 dYaw : 1.21 Latitude : 376260215 Longitude : 1270698917 GPS Time : 11:31:36 accel(x, y, z) :  (0.04, -0.02, 1.00)  gyro(x, y, z) :  (-2.75, 4.88, -4.15)  mag(x, y, z) :  (14.44, -15.95, 24.37)  Speed (m/s): 350.95
time : 5.83 Pitch : -2.19 Roll : -1.54 Yaw : 28.46 dYaw : 1.36 Latitude : 376250060 Longitude : 1270663314 GPS Time : 11:31:37 accel(x, y, z) :  (0.07, -0.05, 1.00)  gyro(x, y, z) :  (3.17, 0.00, -0.98)  mag(x, y, z) :  (14.20, -16.69, 24.37)  Speed (m/s): 387.89
time : 5.85 Pitch : 0.52 Roll : -3.33 Yaw : 24.96 dYaw : 3.50 Latitude : 376253219 Longitude : 1270675265 GPS Time : 11:31:37 accel(x, y, z) :  (-0.02, -0.10, 0.92)  gyro(x, y, z) :  (1.40, -0.92, 0.61)  mag(x, y, z) :  (13.92, -16.93, 24.29)  Speed (m/s): 72.19
time : 5.87 Pitch : -1.96 Roll : -2.60 Yaw : 26.78 dYaw : 1.82 Latitude : 376253219 Longitude : 1270675265 GPS Time : 11:31:37 accel(x, y, z) :  (0.06, -0.08, 1.02)  gyro(x, y, z) :  (3.05, 5.92, -2.99)  mag(x, y, z) :  (14.77, -16.75, 22.84)  Speed (m/s): 72.19
time : 5.90 Pitch : -1.28 Roll : -2.05 Yaw : 27.27 dYaw : 0.49 Latitude : 376258163 Longitude : 1270690701 GPS Time : 11:31:38 accel(x, y, z) :  (0.04, -0.06, 0.98)  gyro(x, y, z) :  (2.93, -0.06, -0.37)  mag(x, y, z) :  (14.49, -17.11, 23.36)  Speed (m/s): 154.22
time : 5.93 Pitch : -1.09 Roll : -2.46 Yaw : 27.54 dYaw : 0.27 Latitude : 376268457 Longitude : 1270722027 GPS Time : 11:31:38 accel(x, y, z) :  (0.03, -0.07, 0.95)  gyro(x, y, z) :  (1.71, -0.43, 1.71)  mag(x, y, z) :  (14.04, -17.30, 22.40)  Speed (m/s): 156.42
time : 5.95 Pitch : -2.96 Roll : -1.85 Yaw : 28.70 dYaw : 1.16 Latitude : 376272221 Longitude : 1270733837 GPS Time : 11:31:38 accel(x, y, z) :  (0.09, -0.06, 1.00)  gyro(x, y, z) :  (0.37, -2.62, 1.89)  mag(x, y, z) :  (14.86, -17.26, 22.94)  Speed (m/s): 14.54
time : 5.98 Pitch : -1.89 Roll : -2.59 Yaw : 26.69 dYaw : 2.01 Latitude : 376266190 Longitude : 1270714727 GPS Time : 11:31:39 accel(x, y, z) :  (0.06, -0.08, 0.99)  gyro(x, y, z) :  (1.53, 2.44, -1.10)  mag(x, y, z) :  (14.77, -16.71, 22.62)  Speed (m/s): 56.88
